[
  {
    "id": 14927,
    "obdb_id": "the-bronx-brewery-bronx",
    "name": "The Bronx Brewery",
    "brewery_type": "micro",
    "street": "856 E 136th St",
    "address_2": null,
    "address_3": null,
    "city": "Bronx",
    "state": "New York",
    "county_province": null,
    "postal_code": "10454-3509",
    "country": "United States",
    "longitude": "-73.91064054",
    "latitude": "40.801861",
    "phone": "7184021000",
    "website_url": "http://www.thebronxbrewery.com",
    "updated_at": "2018-08-24T00:00:00.000Z",
    "created_at": "2018-07-24T00:00:00.000Z"
  },
  {
    "id": 12184,
    "obdb_id": "lic-beer-project-long-island-city",
    "name": "LIC Beer Project",
    "brewery_type": "micro",
    "street": "3928 23rd St",
    "address_2": null,
    "address_3": null,
    "city": "Long Island City",
    "state": "New York",
    "county_province": null,
    "postal_code": "11101-4817",
    "country": "United States",
    "longitude": "-73.942849",
    "latitude": "40.75063",
    "phone": "9178326840",
    "website_url": "http://licbeerproject.com",
    "updated_at": "2018-08-24T00:00:00.000Z",
    "created_at": "2018-07-24T00:00:00.000Z"
  },
  {
    "id": 11335,
    "obdb_id": "harlem-brewing-co-new-york",
    "name": "Harlem Brewing Co",
    "brewery_type": "contract",
    "street": "2 W 123rd St",
    "address_2": null,
    "address_3": null,
    "city": "New York",
    "state": "New York",
    "county_province": null,
    "postal_code": "10027-5623",
    "country": "United States",
    "longitude": "-73.94532799",
    "latitude": "40.8058068",
    "phone": "8885596735",
    "website_url": "http://www.harlembrewingcompany.com",
    "updated_at": "2018-08-24T00:00:00.000Z",
    "created_at": "2018-07-24T00:00:00.000Z"
  },
  {
    "id": 10641,
    "obdb_id": "finback-brewery-queens",
    "name": "Finback Brewery",
    "brewery_type": "micro",
    "street": "78-01 77th Ave",
    "address_2": null,
    "address_3": null,
    "city": "Queens",
    "state": "New York",
    "county_province": null,
    "postal_code": "11385-7518",
    "country": "United States",
    "longitude": "-73.8732597",
    "latitude": "40.7067227",
    "phone": "7186288600",
    "website_url": "http://www.finbackbrewery.com",
    "updated_at": "2018-08-24T00:00:00.000Z",
    "created_at": "2018-07-24T00:00:00.000Z"
  },
  {
    "id": 10619,
    "obdb_id": "fifth-hammer-brewing-company-long-island-city",
    "name": "Fifth Hammer Brewing Company",
    "brewery_type": "micro",
    "street": "10-28 46th Ave",
    "address_2": null,
    "address_3": null,
    "city": "Long Island City",
    "state": "New York",
    "county_province": null,
    "postal_code": "11101-5217",
    "country": "United States",
    "longitude": "-73.9515404",
    "latitude": "40.7464921",
    "phone": "7186632084",
    "website_url": "http://www.fifthhammerbrewing.com",
    "updated_at": "2018-08-24T00:00:00.000Z",
    "created_at": "2018-07-24T00:00:00.000Z"
  },
  {
    "id": 15228,
    "obdb_id": "transmitter-brewing-long-island-city",
    "name": "Transmitter Brewing",
    "brewery_type": "micro",
    "street": "5302 11th St",
    "address_2": null,
    "address_3": null,
    "city": "Long Island City",
    "state": "New York",
    "county_province": null,
    "postal_code": "11101-5917",
    "country": "United States",
    "longitude": "-73.9511062",
    "latitude": "40.7431826",
    "phone": "6463788529",
    "website_url": "http://www.transmitterbrew.com",
    "updated_at": "2018-08-24T00:00:00.000Z",
    "created_at": "2018-07-24T00:00:00.000Z"
  },
  {
    "id": 9689,
    "obdb_id": "chelsea-craft-brewing-co-llc-bronx",
    "name": "Chelsea Craft Brewing Co Llc",
    "brewery_type": "micro",
    "street": "463 E 173rd St",
    "address_2": null,
    "address_3": null,
    "city": "Bronx",
    "state": "New York",
    "county_province": null,
    "postal_code": "10457-8105",
    "country": "United States",
    "longitude": "-73.9015282",
    "latitude": "40.841904",
    "phone": "7184848850",
    "website_url": "http://www.chelseacraftbrewing.com",
    "updated_at": "2018-08-24T00:00:00.000Z",
    "created_at": "2018-07-24T00:00:00.000Z"
  },
  {
    "id": 8291,
    "obdb_id": "alewife-brewing-company-long-island-city",
    "name": "Alewife Brewing Company",
    "brewery_type": "brewpub",
    "street": "514 51st Ave",
    "address_2": null,
    "address_3": null,
    "city": "Long Island City",
    "state": "New York",
    "county_province": null,
    "postal_code": "11101-5879",
    "country": "United States",
    "longitude": "-73.95625257",
    "latitude": "40.74232214",
    "phone": "7189377494",
    "website_url": "http://www.alewife.beer",
    "updated_at": "2018-08-24T00:00:00.000Z",
    "created_at": "2018-07-24T00:00:00.000Z"
  },
  {
    "id": 13939,
    "obdb_id": "rockaway-brewing-company-long-island-city",
    "name": "Rockaway Brewing Company",
    "brewery_type": "micro",
    "street": "4601 5th St",
    "address_2": null,
    "address_3": null,
    "city": "Long Island City",
    "state": "New York",
    "county_province": null,
    "postal_code": "11101-5369",
    "country": "United States",
    "longitude": "-73.9573397",
    "latitude": "40.7404088",
    "phone": "7184826528",
    "website_url": "http://www.rockawaybrewco.com",
    "updated_at": "2018-08-24T00:00:00.000Z",
    "created_at": "2018-07-24T00:00:00.000Z"
  },
  {
    "id": 11227,
    "obdb_id": "grimm-artisanal-ales-brooklyn",
    "name": "Grimm Artisanal Ales",
    "brewery_type": "micro",
    "street": "990 Metropolitan Ave",
    "address_2": null,
    "address_3": null,
    "city": "Brooklyn",
    "state": "New York",
    "county_province": null,
    "postal_code": "11211-2607",
    "country": "United States",
    "longitude": "-73.93651911",
    "latitude": "40.7142757",
    "phone": null,
    "website_url": "http://GrimmAles.com",
    "updated_at": "2018-08-24T00:00:00.000Z",
    "created_at": "2018-07-24T00:00:00.000Z"
  },
  {
    "id": 11922,
    "obdb_id": "keg-lantern-brewing-co-brooklyn",
    "name": "Keg \u0026 Lantern Brewing Co",
    "brewery_type": "brewpub",
    "street": "97 Nassau Ave",
    "address_2": null,
    "address_3": null,
    "city": "Brooklyn",
    "state": "New York",
    "county_province": null,
    "postal_code": "11222-3081",
    "country": "United States",
    "longitude": "-73.95031963",
    "latitude": "40.7241037",
    "phone": "7183895050",
    "website_url": "http://www.kegandlanternbrooklyn.com",
    "updated_at": "2018-08-24T00:00:00.000Z",
    "created_at": "2018-07-24T00:00:00.000Z"
  },
  {
    "id": 11974,
    "obdb_id": "kings-county-brewers-collective-brooklyn",
    "name": "Kings County Brewers Collective",
    "brewery_type": "micro",
    "street": "381 Troutman St",
    "address_2": null,
    "address_3": null,
    "city": "Brooklyn",
    "state": "New York",
    "county_province": null,
    "postal_code": "11237-2613",
    "country": "United States",
    "longitude": "-73.9236202",
    "latitude": "40.7060306",
    "phone": "7182882891",
    "website_url": "http://www.kcbcbeer.com",
    "updated_at": "2018-08-24T00:00:00.000Z",
    "created_at": "2018-07-24T00:00:00.000Z"
  },
  {
    "id": 11718,
    "obdb_id": "interboro-spirits-and-ales-brooklyn",
    "name": "Interboro Spirits And Ales",
    "brewery_type": "brewpub",
    "street": "942 Grand St",
    "address_2": null,
    "address_3": null,
    "city": "Brooklyn",
    "state": "New York",
    "county_province": null,
    "postal_code": "11211-2707",
    "country": "United States",
    "longitude": "-73.9369567",
    "latitude": "40.7126813",
    "phone": "6462455417",
    "website_url": "http://www.interboro.nyc",
    "updated_at": "2018-08-24T00:00:00.000Z",
    "created_at": "2018-07-24T00:00:00.000Z"
  },
  {
    "id": 9214,
    "obdb_id": "braven-brewing-company-brooklyn-2",
    "name": "Braven Brewing Company",
    "brewery_type": "contract",
    "street": "362 Jefferson St # 320",
    "address_2": null,
    "address_3": null,
    "city": "Brooklyn",
    "state": "New York",
    "county_province": null,
    "postal_code": "11237-2312",
    "country": "United States",
    "longitude": "-73.92464725",
    "latitude": "40.70559895",
    "phone": "9292956673",
    "website_url": "http://www.bravenbrewing.com",
    "updated_at": "2018-08-24T00:00:00.000Z",
    "created_at": "2018-07-24T00:00:00.000Z"
  },
  {
    "id": 9338,
    "obdb_id": "bridge-and-tunnel-brewery-ridgewood",
    "name": "Bridge And Tunnel Brewery",
    "brewery_type": "micro",
    "street": "15-35 Decatur St",
    "address_2": null,
    "address_3": null,
    "city": "Ridgewood",
    "state": "New York",
    "county_province": null,
    "postal_code": "11385-5818",
    "country": "United States",
    "longitude": "-73.9017521",
    "latitude": "40.6943348",
    "phone": "3473928593",
    "website_url": "http://www.bridgeandtunnelbrewery.com",
    "updated_at": "2018-08-24T00:00:00.000Z",
    "created_at": "2018-07-24T00:00:00.000Z"
  },
  {
    "id": 13633,
    "obdb_id": "queens-brewery-ridgewood",
    "name": "Queens Brewery",
    "brewery_type": "proprietor",
    "street": "1539 Covert St",
    "address_2": null,
    "address_3": null,
    "city": "Ridgewood",
    "state": "New York",
    "county_province": null,
    "postal_code": "11385-5356",
    "country": "United States",
    "longitude": "-73.90428508",
    "latitude": "40.6949116",
    "phone": "6462652049",
    "website_url": "http://www.queensbrewery.com",
    "updated_at": "2018-08-24T00:00:00.000Z",
    "created_at": "2018-07-24T00:00:00.000Z"
  },
  {
    "id": 15066,
    "obdb_id": "third-rail-beer-new-york",
    "name": "Third Rail Beer",
    "brewery_type": "contract",
    "street": "928 Broadway Ste 902",
    "address_2": null,
    "address_3": null,
    "city": "New York",
    "state": "New York",
    "county_province": null,
    "postal_code": "10010-8139",
    "country": "United States",
    "longitude": "-73.9893474",
    "latitude": "40.7400479",
    "phone": null,
    "website_url": "http://www.thirdrailbeer.com",
    "updated_at": "2018-08-24T00:00:00.000Z",
    "created_at": "2018-07-24T00:00:00.000Z"
  },
  {
    "id": 11269,
    "obdb_id": "gun-hill-brewing-co-bronx",
    "name": "Gun Hill Brewing Co",
    "brewery_type": "micro",
    "street": "3227 Laconia Ave",
    "address_2": null,
    "address_3": null,
    "city": "Bronx",
    "state": "New York",
    "county_province": null,
    "postal_code": "10469-1403",
    "country": "United States",
    "longitude": "-73.855814",
    "latitude": "40.8721114",
    "phone": "7188810010",
    "website_url": "http://www.gunhillbrewing.com",
    "updated_at": "2018-08-24T00:00:00.000Z",
    "created_at": "2018-07-24T00:00:00.000Z"
  },
  {
    "id": 13690,
    "obdb_id": "randolph-beer-dumbo-brooklyn",
    "name": "Randolph Beer Dumbo",
    "brewery_type": "brewpub",
    "street": "77 Sands St",
    "address_2": null,
    "address_3": null,
    "city": "Brooklyn",
    "state": "New York",
    "county_province": null,
    "postal_code": "11201-1431",
    "country": "United States",
    "longitude": "-73.987503",
    "latitude": "40.70005509",
    "phone": "7182983331",
    "website_url": "http://www.randolphbeer.com",
    "updated_at": "2018-08-24T00:00:00.000Z",
    "created_at": "2018-07-24T00:00:00.000Z"
  },
  {
    "id": 11930,
    "obdb_id": "kelso-beer-company-brooklyn",
    "name": "KelSo Beer Company",
    "brewery_type": "contract",
    "street": "529 Waverly Ave",
    "address_2": null,
    "address_3": null,
    "city": "Brooklyn",
    "state": "New York",
    "county_province": null,
    "postal_code": "11238-2701",
    "country": "United States",
    "longitude": "-73.96564",
    "latitude": "40.68267586",
    "phone": null,
    "website_url": "http://www.kelsoofbrooklyn.com",
    "updated_at": "2018-08-24T00:00:00.000Z",
    "created_at": "2018-07-24T00:00:00.000Z"
  }
]